[
  {
    "id": "auckland",
    "name": "Auckland / T\u0101maki Makaurau",
    "island": "North",
    "lat": -36.8485,
    "lng": 174.7633,
    "description": "The isthmus city \u2014 T\u0101maki Makaurau \u2014 built on 53 volcanoes between two harbours.",
    "bounds_north": -36.5,
    "bounds_south": -37.2,
    "bounds_east": 175.1,
    "bounds_west": 174.4
  },
  {
    "id": "bay-of-plenty",
    "name": "Bay of Plenty / Te Moana-a-Toi",
    "island": "North",
    "lat": -37.6878,
    "lng": 176.1651,
    "description": "Sunniest city, longest beaches, and the only active marine volcano in the country \u2014 named 'Plenty' by Cook in 1769 for the abundance of food the local iwi offered his ship.",
    "bounds_north": -37.2,
    "bounds_south": -38.3,
    "bounds_east": 178,
    "bounds_west": 175.8
  },
  {
    "id": "canterbury",
    "name": "Canterbury / Waitaha",
    "island": "South",
    "lat": -43.532,
    "lng": 172.6362,
    "description": "The great plains of Waitaha \u2014 Kaik\u014dura whales in the north, Christchurch at the centre, the alps and Aoraki to the west, \u014camaru's Victorian precinct to the south.",
    "bounds_north": -42.4,
    "bounds_south": -44.6,
    "bounds_east": 173.5,
    "bounds_west": 169.5
  },
  {
    "id": "coromandel",
    "name": "Coromandel Peninsula",
    "island": "North",
    "lat": -36.75,
    "lng": 175.7,
    "description": "A long peninsula of rugged bush ranges, white-sand east-coast beaches, and a 19th-century gold and kauri history \u2014 two hours from Auckland but another world.",
    "bounds_north": -36.45,
    "bounds_south": -37.4,
    "bounds_east": 176,
    "bounds_west": 175.3
  },
  {
    "id": "hawkes-bay",
    "name": "Hawke's Bay / Te Matau-a-M\u0101ui",
    "island": "North",
    "lat": -39.4928,
    "lng": 176.912,
    "description": "Wine country, Art Deco seafront, and the dramatic coastline of Te Matau-a-M\u0101ui \u2014 the fish hook of M\u0101ui.",
    "bounds_north": -39.2,
    "bounds_south": -40.2,
    "bounds_east": 177.3,
    "bounds_west": 176.3
  },
  {
    "id": "marlborough",
    "name": "Marlborough",
    "island": "South",
    "lat": -41.5136,
    "lng": 173.9614,
    "description": "The South Island's wine bowl and the Marlborough Sounds \u2014 the drowned river valleys that make up a fifth of New Zealand's coastline.",
    "bounds_north": -40.8,
    "bounds_south": -42.2,
    "bounds_east": 174.5,
    "bounds_west": 172.9
  },
  {
    "id": "nelson-tasman",
    "name": "Nelson / Tasman",
    "island": "South",
    "lat": -41.2706,
    "lng": 173.284,
    "description": "The sunniest region in the country, stretching from Abel Tasman golden beaches to Farewell Spit and the alpine Nelson Lakes.",
    "bounds_north": -40.4,
    "bounds_south": -41.8,
    "bounds_east": 173.6,
    "bounds_west": 171.9
  },
  {
    "id": "northland",
    "name": "Northland / Te Tai Tokerau",
    "island": "North",
    "lat": -35.5,
    "lng": 174,
    "description": "The long warm peninsula where Aotearoa begins \u2014 kauri forest, the Treaty ground, Cape Reinga's leaping place of spirits, and the Bay of Islands.",
    "bounds_north": -34.3,
    "bounds_south": -36,
    "bounds_east": 174.7,
    "bounds_west": 172.6
  },
  {
    "id": "otago",
    "name": "Otago",
    "island": "South",
    "lat": -45.4,
    "lng": 170,
    "description": "The dry, gold-bearing heart of the south \u2014 Central Otago's schist hills, the Clutha/Mata-Au river, the Dunedin coast, and a string of pioneer villages preserved by low rainfall.",
    "bounds_north": -44.3,
    "bounds_south": -46.3,
    "bounds_east": 171.3,
    "bounds_west": 168.5
  },
  {
    "id": "queenstown",
    "name": "Queenstown / T\u0101huna",
    "island": "South",
    "lat": -45.0312,
    "lng": 168.6626,
    "description": "T\u0101huna \u2014 the shallow bay \u2014 on Lake Whakatipu, ringed by the Remarkables.",
    "bounds_north": -44.7,
    "bounds_south": -45.4,
    "bounds_east": 169,
    "bounds_west": 168.2
  },
  {
    "id": "rotorua",
    "name": "Rotorua",
    "island": "North",
    "lat": -38.1368,
    "lng": 176.2497,
    "description": "Rohe of Te Arawa and the heart of North Island geothermal country \u2014 sulphur, mud pots, geysers, and the 1886 Tarawera eruption that rewrote the landscape in six hours.",
    "bounds_north": -37.9,
    "bounds_south": -38.4,
    "bounds_east": 176.6,
    "bounds_west": 175.8
  },
  {
    "id": "southland",
    "name": "Southland & Fiordland",
    "island": "South",
    "lat": -45.8,
    "lng": 167.8,
    "description": "The deep south \u2014 Fiordland's drowned valleys, the Catlins' wild coast, Stewart Island / Rakiura, and the wide sheep-country plains of Southland.",
    "bounds_north": -44.5,
    "bounds_south": -47.3,
    "bounds_east": 169.2,
    "bounds_west": 166.4
  },
  {
    "id": "tairawhiti",
    "name": "Tair\u0101whiti / Gisborne / East Cape",
    "island": "North",
    "lat": -38.05,
    "lng": 178.2,
    "description": "Tair\u0101whiti \u2014 'the coast where the sun shines across the water.' The first place in the world to see each new day, the first place in Aotearoa that two worlds met, and the homeland of Ng\u0101ti Porou, Rongowhakaata, Te Aitanga-a-M\u0101haki, Ng\u0101i T\u0101manuhiri and Ng\u0101ti Oneone.",
    "bounds_north": -37.4,
    "bounds_south": -38.9,
    "bounds_east": 178.6,
    "bounds_west": 177.2
  },
  {
    "id": "taranaki",
    "name": "Taranaki",
    "island": "North",
    "lat": -39.2968,
    "lng": 174.0756,
    "description": "The perfect cone of Mount Taranaki, the rugged black-sand coast, and the land confiscated in the 1860s \u2014 site of Parihaka, where non-violent resistance was born half a century before Gandhi.",
    "bounds_north": -38.8,
    "bounds_south": -39.8,
    "bounds_east": 174.8,
    "bounds_west": 173.6
  },
  {
    "id": "taupo",
    "name": "Taup\u014d / Taup\u014d-nui-a-Tia",
    "island": "North",
    "lat": -38.6857,
    "lng": 176.0702,
    "description": "The great inland lake and its ring of volcanic country \u2014 rohe of Ng\u0101ti T\u016bwharetoa, site of the largest eruption on Earth in the last 5,000 years, and the journey's-end of the Napier\u2013Taup\u014d Road.",
    "bounds_north": -38.3,
    "bounds_south": -39.2,
    "bounds_east": 176.8,
    "bounds_west": 175.5
  },
  {
    "id": "waikato",
    "name": "Waikato",
    "island": "North",
    "lat": -37.787,
    "lng": 175.2793,
    "description": "River country \u2014 the Waikato is New Zealand's longest river, and this is the rohe of the K\u012bngitanga, the M\u0101ori King movement based at T\u016brangawaewae.",
    "bounds_north": -37.1,
    "bounds_south": -38.7,
    "bounds_east": 176.2,
    "bounds_west": 174.5
  },
  {
    "id": "wellington",
    "name": "Wellington / Te Whanganui-a-Tara",
    "island": "North",
    "lat": -41.2866,
    "lng": 174.7756,
    "description": "The harbour-bowl capital \u2014 Te Whanganui-a-Tara, named for the great harbour of Tara.",
    "bounds_north": -41.1,
    "bounds_south": -41.45,
    "bounds_east": 174.95,
    "bounds_west": 174.6
  },
  {
    "id": "west-coast",
    "name": "West Coast / Te Tai Poutini",
    "island": "South",
    "lat": -42.75,
    "lng": 171.1,
    "description": "A 600 km coastline of rainforest, glaciers, pounamu, gold, coal \u2014 and some of the country's wildest weather.",
    "bounds_north": -41.5,
    "bounds_south": -44.5,
    "bounds_east": 172.3,
    "bounds_west": 168.3
  },
  {
    "id": "whanganui-manawatu",
    "name": "Whanganui / Manawat\u016b",
    "island": "North",
    "lat": -40.05,
    "lng": 175.3,
    "description": "The great river country and the fertile Manawat\u016b plains \u2014 home of the Whanganui River, the first river in the world to be granted legal personhood.",
    "bounds_north": -39.4,
    "bounds_south": -40.8,
    "bounds_east": 176.3,
    "bounds_west": 174.8
  }
]